$GPGLL,,,,,165809.00,V,N*49

$GPRMC,165816.00,V,,,,,,,190317,,,N*7D

$GPVTG,,,,,,,,,N*30

$GPGGA,165816.00,,,,,0,03,5.20,,,,,,*5F

$GPGSA,A,1,16,03,23,,,,,,,,,,5.30,5.20,1.00*05

$GPGSV,3,1,12,01,,,15,03,65,319,26,04,,,25,09,06,278,20*71

$GPGSV,3,2,12,11,12,215,,15,,,16,16,27,143,25,22,88,234,*4B

$GPGSV,3,3,12,23,38,296,29,26,38,110,21,31,37,043,,32,04,083,*75

$GPGLL,,,,,165816.00,V,N*47

$GPTXT,01,01,02,u-blox ag - www.u-blox.com*50

$GPTXT,01,01,02,HW  UBX-G70xx   00070000 *77

$GPTXT,01,01,02,ROM CORE 1.00 (59842) Jun 27 2012 17:43:52*59

$GPTXT,01,01,02,PROTVER 14.00*1E

$GPTXT,01,01,02,ANTSUPERV=AC SD PDoS SR*20

$GPTXT,01,01,02,ANTSTATUS=OK*3B

$GPTXT,01,01,02,LLC FFFFFFFF-FFFFFFFD-FFFFFFFF-FFFFFFFF-FFFFFFF9*53

$GPRMC,165817.00,V,,,,,,,190317,,,N*7C

$GPVTG,,,,,,,,,N*30

$GPGGA,165817.00,,,,,0,03,5.21,,,,,,*5F

$GPGSA,A,1,16,03,23,,,,,,,,,,5.30,5.21,1.00*04

$GPGSV,3,1,12,01,,,15,03,65,319,26,04,,,23,09,06,278,19*7D

$GPGSV,3,2,12,11,12,215,,15,,,16,16,27,143,25,22,88,234,26*4F

$GPGSV,3,3,12,23,38,296,29,26,38,110,20,31,37,043,,32,04,083,*74

$GPGLL,,,,,165817.00,V,N*46

$GPRMC,165818.00,A,3346.82287,N,11748.57304,W,0.583,,190317,,,A*69

$GPVTG,,T,,M,0.583,N,1.079,K,A*22

$GPGGA,165818.00,3346.82287,N,11748.57304,W,1,04,8.83,100.1,M,-32.8,M,,*65

$GPGSA,A,3,22,16,03,23,,,,,,,,,10.00,8.83,4.70*36

$GPGSV,3,1,10,01,,,16,03,65,319,26,09,06,278,,11,12,215,*44

$GPGSV,3,2,10,16,27,143,26,22,88,234,27,23,38,296,29,26,38,110,22*7A

$GPGSV,3,3,10,31,37,043,,32,04,083,22*77

$GPGLL,3346.82287,N,11748.57304,W,165818.00,A,A*73

$GPRMC,165819.00,A,3346.82292,N,11748.57303,W,0.124,,190317,,,A*62

$GPVTG,,T,,M,0.124,N,0.230,K,A*25

$GPGGA,165819.00,3346.82292,N,11748.57303,W,1,04,8.83,99.1,M,-32.8,M,,*56

$GPGSA,A,3,22,16,03,23,,,,,,,,,10.00,8.83,4.70*36

$GPGSV,3,1,10,03,65,319,27,09,06,278,,11,12,215,,13,,,28*4B

$GPGSV,3,2,10,16,27,143,26,22,88,234,28,23,38,296,30,26,38,110,22*7D

$GPGSV,3,3,10,31,37,043,,32,04,083,23*76

$GPGLL,3346.82292,N,11748.57303,W,165819.00,A,A*71

$GPRMC,165820.00,A,3346.82273,N,11748.57328,W,0.851,,190317,,,A*65

$GPVTG,,T,,M,0.851,N,1.576,K,A*2A

$GPGGA,165820.00,3346.82273,N,11748.57328,W,1,04,8.83,98.8,M,-32.8,M,,*52

$GPGSA,A,3,22,16,03,23,,,,,,,,,10.00,8.83,4.69*3E

$GPGSV,3,1,11,01,,,25,03,65,319,28,09,06,278,20,11,12,215,*49

$GPGSV,3,2,11,13,,,25,16,27,143,26,22,88,234,28,23,38,296,30*46

$GPGSV,3,3,11,26,38,110,22,31,37,043,16,32,04,083,23*4F

$GPGLL,3346.82273,N,11748.57328,W,165820.00,A,A*7D

$GPRMC,165821.00,A,3346.82275,N,11748.57334,W,0.914,,190317,,,A*6F

$GPVTG,,T,,M,0.914,N,1.693,K,A*22

$GPGGA,165821.00,3346.82275,N,11748.57334,W,1,04,8.83,98.4,M,-32.8,M,,*54

$GPGSA,A,3,22,16,03,23,,,,,,,,,10.00,8.83,4.69*3E

$GPGSV,3,1,11,01,,,24,03,65,319,27,09,06,278,,11,12,215,*45

$GPGSV,3,2,11,13,,,24,16,27,143,26,22,88,234,28,23,38,296,30*47

$GPGSV,3,3,11,26,38,110,23,31,37,043,15,32,04,083,22*4C

$GPGLL,3346.82275,N,11748.57334,W,165821.00,A,A*77

$GPRMC,165822.00,A,3346.82258,N,11748.57359,W,0.586,,190317,,,A*6F

$GPVTG,,T,,M,0.586,N,1.085,K,A*24

$GPGGA,165822.00,3346.82258,N,11748.57359,W,1,04,8.84,98.4,M,-32.8,M,,*54

$GPGSA,A,3,22,16,03,23,,,,,,,,,10.01,8.84,4.69*38

$GPGSV,3,1,11,01,,,23,03,65,319,27,09,06,278,20,11,12,215,22*40

$GPGSV,3,2,11,13,,,23,16,27,143,26,22,88,227,28,23,38,296,29*4A

$GPGSV,3,3,11,26,38,110,23,31,37,043,12,32,04,083,23*4A

$GPGLL,3346.82258,N,11748.57359,W,165822.00,A,A*70

$GPRMC,165823.00,A,3346.82240,N,11748.57374,W,0.380,,190317,,,A*68

$GPVTG,,T,,M,0.380,N,0.704,K,A*2B

$GPGGA,165823.00,3346.82240,N,11748.57374,W,1,04,8.84,98.7,M,-32.8,M,,*50

$GPGSA,A,3,22,16,03,23,,,,,,,,,10.01,8.84,4.69*38

$GPGSV,3,1,11,01,,,23,03,65,319,27,09,06,278,20,11,12,215,*40

$GPGSV,3,2,11,13,,,23,16,27,143,26,22,88,227,28,23,38,296,29*4A

$GPGSV,3,3,11,26,38,110,29,31,37,043,10,32,04,083,22*43

$GPGLL,3346.82240,N,11748.57374,W,165823.00,A,A*77

$GPRMC,165824.00,A,3346.82240,N,11748.57381,W,0.441,,190317,,,A*6F

$GPVTG,,T,,M,0.441,N,0.818,K,A*23

$GPGGA,165824.00,3346.82240,N,11748.57381,W,1,04,8.84,98.3,M,-32.8,M,,*59

$GPGSA,A,3,22,16,03,23,,,,,,,,,10.01,8.84,4.69*38

$GPGSV,3,1,11,01,,,22,03,65,319,27,09,06,278,27,11,12,215,*46

$GPGSV,3,2,11,13,,,23,16,27,143,26,22,88,227,28,23,38,296,29*4A

$GPGSV,3,3,11,26,38,110,19,31,37,043,10,32,04,083,23*41

$GPGLL,3346.82240,N,11748.57381,W,165824.00,A,A*7A

