{"class":"VERSION","release":"3.11","rev":"3.11-3","proto_major":3,"proto_minor":9}
{"class":"DEVICES","devices":[{"class":"DEVICE","path":"/dev/ttyACM0","driver":"u-blox","subtype":"1.00 (59842)","activated":"2017-03-19T17:38:54.057Z","flags":1,"native":0,"bps":9600,"parity":"N","stopbits":1,"cycle":1.00,"mincycle":0.25}]}
{"class":"WATCH","enable":true,"json":false,"nmea":true,"raw":0,"scaled":false,"timing":false,"split24":false,"pps":false}
$GPRMC,173855.00,A,3346.83088,N,11748.56538,W,0.219,,190317,,,A*67
$GPVTG,,T,,M,0.219,N,0.405,K,A*28
$GPGGA,173855.00,3346.83088,N,11748.56538,W,1,06,1.49,86.6,M,-32.8,M,,*5A
$GPGSA,A,3,22,03,23,26,16,01,,,,,,,2.80,1.49,2.37*02
$GPGSV,3,1,12,01,20,214,20,03,81,274,28,06,07,318,,07,12,233,10*73
$GPGSV,3,2,12,09,17,292,,11,02,203,,14,13,084,,16,42,127,14*75
$GPGSV,3,3,12,22,68,169,24,23,49,315,27,26,44,085,13,31,21,045,*79
$GPGLL,3346.83088,N,11748.56538,W,173855.00,A,A*79
$GPRMC,173856.00,A,3346.83091,N,11748.56549,W,0.283,,190317,,,A*69
$GPVTG,,T,,M,0.283,N,0.525,K,A*28
$GPGGA,173856.00,3346.83091,N,11748.56549,W,1,06,1.49,87.0,M,-32.8,M,,*50
$GPGSA,A,3,22,03,23,26,16,01,,,,,,,2.80,1.49,2.37*02
$GPGSV,3,1,12,01,20,214,20,03,81,274,29,06,07,318,,07,12,233,08*7B
$GPGSV,3,2,12,09,17,292,,11,02,203,,14,13,084,,16,42,127,17*76
$GPGSV,3,3,12,22,68,169,25,23,49,315,28,26,44,084,13,31,21,045,*76
$GPGLL,3346.83091,N,11748.56549,W,173856.00,A,A*74
$GPRMC,173857.00,A,3346.83085,N,11748.56581,W,0.516,,190317,,,A*62
$GPVTG,,T,,M,0.516,N,0.956,K,A*2B
$GPGGA,173857.00,3346.83085,N,11748.56581,W,1,06,1.49,87.2,M,-32.8,M,,*52
$GPGSA,A,3,22,03,23,26,16,01,,,,,,,2.80,1.49,2.37*02
$GPGSV,3,1,12,01,20,214,20,03,81,274,30,06,07,318,,07,12,233,09*72
$GPGSV,3,2,12,09,17,292,,11,02,203,,14,13,084,,16,42,127,19*78
$GPGSV,3,3,12,22,68,169,25,23,49,315,28,26,44,084,13,31,21,045,*76
$GPGLL,3346.83085,N,11748.56581,W,173857.00,A,A*74
$GPRMC,173858.00,A,3346.83072,N,11748.56623,W,0.642,,190317,,,A*6C
$GPVTG,,T,,M,0.642,N,1.189,K,A*22
$GPGGA,173858.00,3346.83072,N,11748.56623,W,1,06,1.49,87.4,M,-32.8,M,,*58
$GPGSA,A,3,22,03,23,26,16,01,,,,,,,2.80,1.49,2.37*02
$GPGSV,3,1,12,01,20,214,21,03,81,274,29,06,07,318,,07,12,233,09*7B
$GPGSV,3,2,12,09,17,292,,11,02,203,,14,13,084,,16,42,127,19*78
$GPGSV,3,3,12,22,68,169,26,23,49,315,29,26,44,084,12,31,21,045,*75
$GPGLL,3346.83072,N,11748.56623,W,173858.00,A,A*78
$GPRMC,173859.00,A,3346.83061,N,11748.56652,W,0.770,,190317,,,A*69
$GPVTG,,T,,M,0.770,N,1.427,K,A*23
$GPGGA,173859.00,3346.83061,N,11748.56652,W,1,06,1.49,87.7,M,-32.8,M,,*5E
$GPGSA,A,3,22,03,23,26,16,01,,,,,,,2.80,1.49,2.37*02
$GPGSV,3,1,12,01,20,214,23,03,81,274,29,06,07,318,,07,12,233,09*79
$GPGSV,3,2,12,09,17,292,,11,02,203,,14,13,084,,16,42,127,20*72
$GPGSV,3,3,12,22,68,169,26,23,49,315,29,26,44,084,12,31,21,045,*75
$GPGLL,3346.83061,N,11748.56652,W,173859.00,A,A*7D
$GPRMC,173900.00,A,3346.83060,N,11748.56659,W,0.709,,190317,,,A*60
$GPVTG,,T,,M,0.709,N,1.313,K,A*2D
$GPGGA,173900.00,3346.83060,N,11748.56659,W,1,06,1.49,88.0,M,-32.8,M,,*51
$GPGSA,A,3,22,03,23,26,16,01,,,,,,,2.80,1.49,2.37*02
$GPGSV,3,1,12,01,20,214,22,03,81,274,28,06,07,318,,07,12,233,08*78
$GPGSV,3,2,12,09,17,292,,11,02,203,,14,13,084,,16,42,127,18*79
$GPGSV,3,3,12,22,68,169,25,23,49,315,28,26,44,084,12,31,21,045,*77
$GPGLL,3346.83060,N,11748.56659,W,173900.00,A,A*7A
$GPRMC,173901.00,A,3346.83098,N,11748.56582,W,0.126,,190317,,,A*68
$GPVTG,,T,,M,0.126,N,0.233,K,A*24
$GPGGA,173901.00,3346.83098,N,11748.56582,W,1,06,1.49,88.0,M,-32.8,M,,*52
$GPGSA,A,3,22,03,23,26,16,01,,,,,,,2.80,1.49,2.37*02
$GPGSV,3,1,12,01,20,214,22,03,81,274,28,06,07,318,,07,12,233,08*78
$GPGSV,3,2,12,09,17,292,,11,02,203,,14,13,084,,16,42,127,19*78
$GPGSV,3,3,12,22,68,169,25,23,49,315,28,26,44,084,12,31,21,045,*77
$GPGLL,3346.83098,N,11748.56582,W,173901.00,A,A*79
$GPRMC,173902.00,A,3346.83110,N,11748.56555,W,0.270,,190317,,,A*60
$GPVTG,,T,,M,0.270,N,0.501,K,A*22
$GPGGA,173902.00,3346.83110,N,11748.56555,W,1,06,1.49,88.1,M,-32.8,M,,*5B
$GPGSA,A,3,22,03,23,26,16,01,,,,,,,2.80,1.49,2.37*02
$GPGSV,3,1,12,01,20,214,22,03,81,274,28,06,07,318,,07,12,233,10*71
$GPGSV,3,2,12,09,17,292,,11,02,203,,14,13,084,,16,42,127,20*72
$GPGSV,3,3,12,22,68,169,25,23,49,315,28,26,44,084,13,31,21,045,*76
$GPGLL,3346.83110,N,11748.56555,W,173902.00,A,A*71
